{
  "cities": [
    {
      "cityName": "Madrid",
      "country": "Spain",
      "emoji": "ðŸ‡ªðŸ‡¸",
      "date": "2027-07-15T08:22:53.976Z",
      "notes": "",
      "position": {
        "lat": 40.46635901755316,
        "lng": -3.7133789062500004
      },
      "id": 17806751
    },
    {
      "cityName": "Berlin",
      "country": "Germany",
      "emoji": "ðŸ‡©ðŸ‡ª",
      "date": "2027-02-12T09:24:11.863Z",
      "notes": "Amazing ðŸ˜ƒ",
      "position": {
        "lat": 52.53586782505711,
        "lng": 13.376933665713324
      },
      "id": 98443197
    },
    {
      "cityName": "Krasnoznamensk",
      "country": "Russian Federation (the)",
      "emoji": "ðŸ‡·ðŸ‡º",
      "date": "2024-04-09T16:06:36.348Z",
      "notes": "",
      "position": {
        "lat": "55.59503141001479",
        "lng": "37.04109191894532"
      },
      "id": 98443199
    },
    {
      "cityName": "Moscow",
      "country": "Russian Federation (the)",
      "emoji": "ðŸ‡·ðŸ‡º",
      "date": "2024-04-09T16:09:30.731Z",
      "notes": "",
      "position": {
        "lat": "55.753395077731085",
        "lng": "37.61581420898438"
      },
      "id": 98443200
    },
    {
      "cityName": "Deltebre",
      "country": "Spain",
      "emoji": "ðŸ‡ªðŸ‡¸",
      "date": "2024-04-09T16:11:43.974Z",
      "notes": "",
      "position": {
        "lat": "40.70979201243498",
        "lng": "0.7415771484375"
      },
      "id": 98443203
    },
    {
      "cityName": "l'Alcora",
      "country": "Spain",
      "emoji": "ðŸ‡ªðŸ‡¸",
      "date": "2024-04-09T16:33:53.457Z",
      "notes": "",
      "position": {
        "lat": "40.07807142745009",
        "lng": "-0.21697998046875003"
      },
      "id": 98443204
    },
    {
      "cityName": "Zhukov",
      "country": "Russian Federation (the)",
      "emoji": "ðŸ‡·ðŸ‡º",
      "date": "2024-04-09T16:35:02.370Z",
      "notes": "",
      "position": {
        "lat": "55.070504979661266",
        "lng": "37.03353881835938"
      },
      "id": 98443205
    },
    {
      "cityName": "Tokyo",
      "country": "Japan",
      "emoji": "ðŸ‡¯ðŸ‡µ",
      "date": "2024-04-18T20:16:37.000Z",
      "notes": "",
      "position": {
        "lat": "35.70698515338543",
        "lng": "139.63623046875003"
      },
      "id": 98443206
    }
  ]
}